[1557495251959]

[1557495251959]$GPGGA,043408.00,3556.72804,N,12641.10408,E,1,07,1.11,13.3,M,18.8,M,,*60

[1557495251959]$GPGSA,A,3,08,27,11,07,16,30,18,,,,,,2.27,1.11,1.98*03

[1557495251959]$GPGSV,4,1,15,01,,,35,04,20,272,28,07,47,306,36,08,74,297,34*40

[1557495251959]$GPGSV,4,2,15,09,,,32,11,35,207,35,16,40,079,38,18,37,175,37*4A

[1557495251959]$GPGSV,4,3,15,20,03,061,,21,01,034,,23,11,219,22,26,,,23*47

[1557495251959]$GPGSV,4,4,15,27,57,034,35,30,16,317,31,50,44,151,31*4A

[1557495251959]$GPGLL,3556.72804,N,12641.10408,E,043408.00,A,A*63

[1557495251959]$GPRMC,043409.00,A,3556.72785,N,12641.10418,E,0.045,,100519,,,A*71

[1557495251959]$GPVTG,,T,,M,0.045,N,0.083,K,A*29[1557495252960]

[1557495252960]$GPGGA,043409.00,3556.72785,N,12641.10418,E,1,07,1.11,14.8,M,18.8,M,,*6A

[1557495252960]$GPGSA,A,3,08,27,11,07,16,30,18,,,,,,2.27,1.11,1.99*02

[1557495252960]$GPGSV,4,1,15,01,,,35,04,20,272,28,07,47,306,36,08,74,297,34*40

[1557495252960]$GPGSV,4,2,15,09,,,26,11,35,207,36,16,40,079,38,18,37,175,37*4C

[1557495252960]$GPGSV,4,3,15,20,03,061,,21,01,034,,23,11,219,24,26,,,23*41

[1557495252960]$GPGSV,4,4,15,27,57,034,35,30,16,317,29,50,44,151,30*42

[1557495252960]$GPGLL,3556.72785,N,12641.10418,E,043409.00,A,A*65

[1557495252960]$GPRMC,043410.00,A,3556.72764,N,12641.10434,E,0.046,,100519,,,A*7B

[1557495252960]$GPVTG,,T,,M,0.046,N,0.085,K,A*2C[1557495253961]

[1557495253961]$GPGGA,043410.00,3556.72764,N,12641.10434,E,1,07,1.11,16.3,M,18.8,M,,*6A

[1557495253961]$GPGSA,A,3,08,27,11,07,16,30,18,,,,,,2.27,1.11,1.99*02

[1557495253961]$GPGSV,4,1,15,01,,,36,04,20,272,26,07,47,306,38,08,74,297,34*43

[1557495253961]$GPGSV,4,2,15,09,,,27,11,35,207,36,16,40,079,38,18,37,175,37*4D

[1557495253961]$GPGSV,4,3,15,20,03,061,,21,01,034,,23,11,219,24,26,,,23*41

[1557495253961]$GPGSV,4,4,15,27,57,034,35,30,16,317,28,50,44,151,31*42

[1557495253961]$GPGLL,3556.72764,N,12641.10434,E,043410.00,A,A*6C

[1557495253961]$GPRMC,043411.00,A,3556.72741,N,12641.10454,E,0.031,,100519,,,A*7B

[1557495253961]$GPVTG,,T,,M,0.031,N,0.057,K,A*23[1557495254959]

[1557495254959]$GPGGA,043411.00,3556.72741,N,12641.10454,E,1,07,1.11,17.9,M,18.8,M,,*61

[1557495254959]$GPGSA,A,3,08,27,11,07,16,30,18,,,,,,2.27,1.11,1.99*02

[1557495254959]$GPGSV,4,1,15,01,,,35,04,20,272,26,07,47,306,38,08,74,297,34*40

[1557495254959]$GPGSV,4,2,15,09,,,29,11,35,207,36,16,40,079,37,18,37,175,37*4C

[1557495254959]$GPGSV,4,3,15,20,03,061,,21,01,034,,23,11,218,23,26,,,23*47

[1557495254959]$GPGSV,4,4,15,27,57,034,34,30,16,317,29,50,44,151,30*43

[1557495254959]$GPGLL,3556.72741,N,12641.10454,E,043411.00,A,A*6C

[1557495254959]$GPRMC,043412.00,A,3556.72713,N,12641.10475,E,0.087,,100519,,,A*71

[1557495254959]$GPVTG,,T,,M,0.087,N,0.161,K,A*2A[1557495255964]

[1557495255964]$GPGGA,043412.00,3556.72713,N,12641.10475,E,1,07,1.11,19.9,M,18.8,M,,*68

[1557495255964]$GPGSA,A,3,08,27,11,07,16,30,18,,,,,,2.27,1.11,1.99*02

[1557495255964]$GPGSV,4,1,15,01,,,35,04,20,272,26,07,47,306,35,08,74,297,35*4C

[1557495255964]$GPGSV,4,2,15,09,,,30,11,35,207,35,16,40,079,38,18,37,175,37*48

[1557495255964]$GPGSV,4,3,15,20,03,061,,21,01,034,,23,11,218,23,26,,,23*47

[1557495255964]$GPGSV,4,4,15,27,57,034,33,30,16,317,31,50,44,151,30*4D

[1557495255964]$GPGLL,3556.72713,N,12641.10475,E,043412.00,A,A*6B

[1557495255964]$GPRMC,043413.00,A,3556.72694,N,12641.10495,E,0.008,,100519,,,A*77

[1557495255964]$GPVTG,,T,,M,0.008,N,0.015,K,A*2F[1557495256957]

[1557495256957]$GPGGA,043413.00,3556.72694,N,12641.10495,E,1,07,1.11,21.1,M,18.8,M,,*6A

[1557495256957]$GPGSA,A,3,08,27,11,07,16,30,18,,,,,,2.27,1.11,1.99*02

[1557495256957]$GPGSV,4,1,15,01,,,35,04,20,272,27,07,47,306,38,08,74,297,35*40

[1557495256957]$GPGSV,4,2,15,09,,,29,11,35,207,34,16,40,079,38,18,37,175,37*41

[1557495256957]$GPGSV,4,3,15,20,03,061,,21,01,034,,23,11,218,24,26,,,21*42

[1557495256957]$GPGSV,4,4,15,27,57,034,34,30,16,317,26,50,44,151,30*4C

[1557495256957]$GPGLL,3556.72694,N,12641.10495,E,043413.00,A,A*6A

[1557495256957]$GPRMC,043414.00,A,3556.72690,N,12641.10504,E,0.018,,100519,,,A*7C

[1557495256957]$GPVTG,,T,,M,0.018,N,0.034,K,A*2D[1557495257961]

[1557495257961]$GPGGA,043414.00,3556.72690,N,12641.10504,E,1,07,1.53,21.2,M,18.8,M,,*65

[1557495257961]$GPGSA,A,3,08,27,11,07,16,30,18,,,,,,4.56,1.53,4.30*02

[1557495257961]$GPGSV,4,1,15,01,,,35,04,20,272,27,07,47,306,37,08,74,297,35*4F

[1557495257961]$GPGSV,4,2,15,09,,,33,11,35,207,35,16,40,079,37,18,37,175,37*44

[1557495257961]$GPGSV,4,3,15,20,03,061,,21,01,034,,23,11,218,23,26,,,22*46

[1557495257961]$GPGSV,4,4,15,27,57,034,34,30,16,317,29,50,44,151,30*43

[1557495257961]$GPGLL,3556.72690,N,12641.10504,E,043414.00,A,A*60

[1557495257961]$GPRMC,043415.00,A,3556.72681,N,12641.10518,E,0.022,,100519,,,A*79

[1557495257961]$GPVTG,,T,,M,0.022,N,0.040,K,A*27[1557495258957]

[1557495258957]$GPGGA,043415.00,3556.72681,N,12641.10518,E,1,07,1.11,21.6,M,18.8,M,,*6B

[1557495258957]$GPGSA,A,3,08,27,11,07,16,30,18,,,,,,2.27,1.11,1.99*02

[1557495258957]$GPGSV,4,1,15,01,,,35,04,20,272,26,07,47,306,38,08,74,297,35*41

[1557495258957]$GPGSV,4,2,15,09,,,28,11,35,207,35,16,40,079,37,18,37,175,37*4E

[1557495258957]$GPGSV,4,3,15,20,03,061,,21,01,034,,23,11,218,24,26,,,22*41

[1557495258957]$GPGSV,4,4,15,27,57,034,35,30,16,317,29,50,44,151,30*42

[1557495258957]$GPGLL,3556.72681,N,12641.10518,E,043415.00,A,A*6C

[1557495258957]$GPRMC,043416.00,A,3556.72674,N,12641.10532,E,0.064,,100519,,,A*7A

[1557495258957]$GPVTG,,T,,M,0.064,N,0.119,K,A*28[1557495259959]

[1557495259959]$GPGGA,043416.00,3556.72674,N,12641.10532,E,1,07,1.11,22.2,M,18.8,M,,*6D

[1557495259959]$GPGSA,A,3,08,27,11,07,16,30,18,,,,,,2.27,1.11,1.99*02

[1557495259959]$GPGSV,4,1,15,01,,,35,04,20,272,26,07,47,306,37,08,74,297,35*4E

[1557495259959]$GPGSV,4,2,15,09,,,29,11,35,207,31,16,40,079,37,18,37,175,37*4B

[1557495259959]$GPGSV,4,3,15,20,03,061,,21,01,034,,23,11,218,25,26,,,23*41

[1557495259959]$GPGSV,4,4,15,27,57,034,35,30,16,317,28,50,44,151,31*42

[1557495259959]$GPGLL,3556.72674,N,12641.10532,E,043416.00,A,A*6D

[1557495259959]$GPRMC,043417.00,A,3556.72663,N,12641.10544,E,0.037,,100519,,,A*7A

[1557495259959]$GPVTG,,T,,M,0.037,N,0.069,K,A*28[1557495260956]

[1557495260956]$GPGGA,043417.00,3556.72663,N,12641.10544,E,1,07,1.11,22.9,M,18.8,M,,*60

[1557495260956]$GPGSA,A,3,08,27,11,07,16,30,18,,,,,,2.28,1.11,1.99*0D

[1557495260956]$GPGSV,4,1,15,01,,,35,04,20,272,26,07,47,306,38,08,74,297,34*40

[1557495260956]$GPGSV,4,2,15,09,,,27,11,35,207,35,16,40,079,34,18,37,175,37*42

[1557495260956]$GPGSV,4,3,15,20,03,061,,21,01,034,,23,11,218,24,26,,,24*47

[1557495260956]$GPGSV,4,4,15,27,57,034,35,30,16,317,28,50,44,151,30*43

[1557495260956]$GPGLL,3556.72663,N,12641.10544,E,043417.00,A,A*6B

[1557495260956]$GPRMC,043418.00,A,3556.72646,N,12641.10559,E,0.040,,100519,,,A*7E

[1557495260956]$GPVTG,,T,,M,0.040,N,0.074,K,A*24[1557495261965]

[1557495261965]$GPGGA,043418.00,3556.72646,N,12641.10559,E,1,07,1.11,24.4,M,18.8,M,,*6F

[1557495261965]$GPGSA,A,3,08,27,11,07,16,30,18,,,,,,2.28,1.11,1.99*0D

[1557495261965]$GPGSV,4,1,15,01,,,34,04,20,272,25,07,47,306,36,08,74,297,34*4C

[1557495261965]$GPGSV,4,2,15,09,,,26,11,35,207,34,16,40,079,34,18,37,175,37*42

[1557495261965]$GPGSV,4,3,15,20,03,061,,21,01,034,,23,11,218,24,26,,,25*46

[1557495261965]$GPGSV,4,4,15,27,57,034,35,30,16,317,31,50,44,151,30*4B

[1557495261965]$GPGLL,3556.72646,N,12641.10559,E,043418.00,A,A*6F

[1557495261965]$GPRMC,043419.00,A,3556.72644,N,12641.10565,E,0.012,,100519,,,A*75

[1557495261965]$GPVTG,,T,,M,0.012,N,0.022,K,A*20[1557495262958]

[1557495262958]$GPGGA,043419.00,3556.72644,N,12641.10565,E,1,07,1.53,24.5,M,18.8,M,,*64

[1557495262958]$GPGSA,A,3,08,27,11,07,16,30,18,,,,,,4.57,1.53,4.30*03

[1557495262958]$GPGSV,4,1,15,01,,,33,04,20,272,30,07,47,306,38,08,74,297,34*41

[1557495262958]$GPGSV,4,2,15,09,,,25,11,35,207,36,16,40,079,34,18,37,175,37*43

[1557495262958]$GPGSV,4,3,15,20,03,061,,21,01,034,,23,11,218,24,26,,,26*45

[1557495262958]$GPGSV,4,4,15,27,57,034,36,30,16,317,30,50,44,151,29*41

[1557495262958]$GPGLL,3556.72644,N,12641.10565,E,043419.00,A,A*63

[1557495262958]$GPRMC,043420.00,A,3556.72636,N,12641.10574,E,0.036,,100519,,,A*7C

[1557495262958]$GPVTG,,T,,M,0.036,N,0.066,K,A*26[1557495263962]

[1557495263962]$GPGGA,043420.00,3556.72636,N,12641.10574,E,1,07,1.11,25.0,M,18.8,M,,*69

[1557495263962]$GPGSA,A,3,08,27,11,07,16,30,18,,,,,,2.28,1.11,1.99*0D

[1557495263962]$GPGSV,4,1,15,01,,,33,04,20,272,29,07,47,306,38,08,74,297,36*4B

[1557495263962]$GPGSV,4,2,15,09,,,23,11,35,207,35,16,40,079,36,18,37,175,36*45

[1557495263962]$GPGSV,4,3,15,20,03,061,,21,01,034,,23,11,218,25,26,,,25*47

[1557495263962]$GPGSV,4,4,15,27,57,034,33,30,16,317,29,50,44,151,30*44

[1557495263962]$GPGLL,3556.72636,N,12641.10574,E,043420.00,A,A*6C

[1557495263962]$GPRMC,043421.00,A,3556.72628,N,12641.10585,E,0.034,,100519,,,A*7E

[1557495263962]$GPVTG,,T,,M,0.034,N,0.063,K,A*21[1557495264957]

[1557495264957]$GPGGA,043421.00,3556.72628,N,12641.10585,E,1,07,1.11,25.8,M,18.8,M,,*61

[1557495264957]$GPGSA,A,3,08,27,11,07,16,30,18,,,,,,2.28,1.11,1.99*0D

[1557495264957]$GPGSV,4,1,15,01,,,33,04,20,272,27,07,47,306,37,08,74,297,34*48

[1557495264957]$GPGSV,4,2,15,09,,,24,11,35,207,36,16,40,079,35,18,37,175,37*43

[1557495264957]$GPGSV,4,3,15,20,03,061,,21,01,034,,23,11,218,26,26,,,25*44

[1557495264957]$GPGSV,4,4,15,27,57,034,36,30,16,317,29,50,44,151,31*40

[1557495264957]$GPGLL,3556.72628,N,12641.10585,E,043421.00,A,A*6C

[1557495264957]$GPRMC,043422.00,A,3556.72618,N,12641.10596,E,0.073,,100519,,,A*7F

[1557495264957]$GPVTG,,T,,M,0.073,N,0.136,K,A*23[1557495265963]

[1557495265963]$GPGGA,043422.00,3556.72618,N,12641.10596,E,1,07,1.11,26.7,M,18.8,M,,*6F

[1557495265963]$GPGSA,A,3,08,27,11,07,16,30,18,,,,,,2.28,1.11,1.99*0D

[1557495265963]$GPGSV,4,1,15,01,,,33,04,20,272,27,07,47,306,37,08,74,297,34*48

[1557495265963]$GPGSV,4,2,15,09,,,25,11,35,207,36,16,40,079,34,18,37,175,37*43

[1557495265963]$GPGSV,4,3,15,20,03,061,,21,01,034,,23,11,218,27,26,,,24*44

[1557495265963]$GPGSV,4,4,15,27,57,034,36,30,16,317,31,50,44,151,31*49

[1557495265963]$GPGLL,3556.72618,N,12641.10596,E,043422.00,A,A*6E

[1557495265963]$GPRMC,043423.00,A,3556.72601,N,12641.10611,E,0.077,,100519,,,A*7E

[1557495265963]$GPVTG,,T,,M,0.077,N,0.143,K,A*25[1557495266959]

[1557495266959]$GPGGA,043423.00,3556.72601,N,12641.10611,E,1,07,1.11,28.2,M,18.8,M,,*61

[1557495266959]$GPGSA,A,3,08,27,11,07,16,30,18,,,,,,2.28,1.11,1.99*0D

[1557495266959]$GPGSV,4,1,15,01,,,31,04,20,272,26,07,47,306,37,08,74,297,34*4B

[1557495266959]$GPGSV,4,2,15,09,,,28,11,35,207,36,16,40,079,32,18,37,175,36*49

[1557495266959]$GPGSV,4,3,15,20,03,061,,21,01,034,,23,11,218,28,26,,,23*4C

[1557495266959]$GPGSV,4,4,15,27,57,034,35,30,16,317,30,50,44,151,30*4A

[1557495266959]$GPGLL,3556.72601,N,12641.10611,E,043423.00,A,A*6B

[1557495266959]$GPRMC,043424.00,A,3556.72578,N,12641.10634,E,0.078,,100519,,,A*7C

[1557495266959]$GPVTG,,T,,M,0.078,N,0.144,K,A*2D[1557495267956]

[1557495267956]$GPGGA,043424.00,3556.72578,N,12641.10634,E,1,07,1.11,30.1,M,18.8,M,,*66

[1557495267956]$GPGSA,A,3,08,27,11,07,16,30,18,,,,,,2.28,1.11,1.99*0D

[1557495267956]$GPGSV,4,1,15,01,,,32,04,20,272,27,07,47,306,38,08,74,297,34*46

[1557495267956]$GPGSV,4,2,15,09,,,27,11,35,207,36,16,40,079,32,18,37,175,36*46

[1557495267956]$GPGSV,4,3,15,20,03,061,,21,01,034,,23,11,218,31,26,,,24*43

[1557495267956]$GPGSV,4,4,15,27,57,034,36,30,16,317,32,50,44,151,30*4B

[1557495267956]$GPGLL,3556.72578,N,12641.10634,E,043424.00,A,A*66

[1557495267956]$GPRMC,043425.00,A,3556.72575,N,12641.10642,E,0.090,,100519,,,A*77

[1557495267956]$GPVTG,,T,,M,0.090,N,0.168,K,A*25[1557495268961]

[1557495268961]$GPGGA,043425.00,3556.72575,N,12641.10642,E,1,07,1.53,30.2,M,18.8,M,,*6E

[1557495268961]$GPGSA,A,3,08,27,11,07,16,30,18,,,,,,4.57,1.53,4.31*02

[1557495268961]$GPGSV,4,1,15,01,,,30,04,20,272,27,07,47,306,38,08,74,297,34*44

[1557495268961]$GPGSV,4,2,15,09,,,30,11,35,207,37,16,40,079,31,18,37,175,36*42

[1557495268961]$GPGSV,4,3,15,20,03,061,,21,01,034,,23,11,218,32,26,,,25*41

[1557495268961]$GPGSV,4,4,15,27,57,034,36,30,16,317,31,50,44,151,30*48

[1557495268961]$GPGLL,3556.72575,N,12641.10642,E,043425.00,A,A*6B

[1557495268961]$GPRMC,043426.00,A,3556.72567,N,12641.10654,E,0.065,,100519,,,A*7A

[1557495268961]$GPVTG,,T,,M,0.065,N,0.121,K,A*22[1557495269961]

[1557495269961]$GPGGA,043426.00,3556.72567,N,12641.10654,E,1,07,1.11,30.7,M,18.8,M,,*6A

[1557495269961]$GPGSA,A,3,08,27,11,07,16,30,18,,,,,,2.28,1.11,1.99*0D

[1557495269961]$GPGSV,4,1,15,01,,,30,04,20,272,27,07,47,306,39,08,74,297,35*44

[1557495269961]$GPGSV,4,2,15,09,,,30,11,35,207,37,16,40,079,32,18,37,175,36*41

[1557495269961]$GPGSV,4,3,15,20,03,061,,21,01,034,,23,11,218,32,26,,,25*41

[1557495269961]$GPGSV,4,4,15,27,57,034,35,30,16,317,32,50,44,151,30*48

[1557495269961]$GPGLL,3556.72567,N,12641.10654,E,043426.00,A,A*6C

[1557495269961]$GPRMC,043427.00,A,3556.72564,N,12641.10666,E,0.059,,100519,,,A*76

[1557495269961]$GPVTG,,T,,M,0.059,N,0.110,K,A*2F[1557495270957]

[1557495270957]$GPGGA,043427.00,3556.72564,N,12641.10666,E,1,07,1.11,31.1,M,18.8,M,,*6E

[1557495270957]$GPGSA,A,3,08,27,11,07,16,30,18,,,,,,2.28,1.11,1.99*0D

[1557495270957]$GPGSV,4,1,15,01,,,31,04,20,272,27,07,48,306,36,08,74,297,34*44

[1557495270957]$GPGSV,4,2,15,09,,,31,11,35,207,37,16,40,079,33,18,37,175,36*41

[1557495270957]$GPGSV,4,3,15,20,03,061,,21,01,034,,23,11,218,33,26,,,25*40

[1557495270957]$GPGSV,4,4,15,27,57,034,36,30,16,317,32,50,44,151,31*4A

[1557495270957]$GPGLL,3556.72564,N,12641.10666,E,043427.00,A,A*6F

[1557495270957]$GPRMC,043428.00,A,3556.72554,N,12641.10679,E,0.068,,100519,,,A*76

[1557495270957]$GPVTG,,T,,M,0.068,N,0.126,K,A*28[1557495271961]

[1557495271961]$GPGGA,043428.00,3556.72554,N,12641.10679,E,1,07,1.11,31.8,M,18.8,M,,*65

[1557495271961]$GPGSA,A,3,08,27,11,07,16,30,18,,,,,,2.28,1.11,1.99*0D

[1557495271961]$GPGSV,4,1,15,01,,,30,04,20,272,28,07,48,306,36,08,74,297,35*4B

[1557495271961]$GPGSV,4,2,15,09,,,31,11,35,207,37,16,40,079,31,18,37,175,36*43

[1557495271961]$GPGSV,4,3,15,20,03,061,,21,01,034,,23,11,218,34,26,,,25*47

[1557495271961]$GPGSV,4,4,15,27,57,034,35,30,16,317,33,50,44,151,30*49

[1557495271961]$GPGLL,3556.72554,N,12641.10679,E,043428.00,A,A*6D

[1557495271961]$GPRMC,043429.00,A,3556.72537,N,12641.10697,E,0.035,,100519,,,A*7A

[1557495271961]$GPVTG,,T,,M,0.035,N,0.064,K,A*27[1557495272959]

[1557495272959]$GPGGA,043429.00,3556.72537,N,12641.10697,E,1,07,1.11,33.2,M,18.8,M,,*69

[1557495272959]$GPGSA,A,3,08,27,11,07,16,30,18,,,,,,2.28,1.11,1.99*0D

[1557495272959]$GPGSV,4,1,15,01,,,30,04,20,272,27,07,48,306,36,08,74,297,35*44

[1557495272959]$GPGSV,4,2,15,09,,,33,11,36,207,37,16,40,079,32,18,37,175,35*42

[1557495272959]$GPGSV,4,3,15,20,03,061,,21,01,034,,23,11,218,33,26,,,26*43

[1557495272959]$GPGSV,4,4,15,27,57,034,34,30,16,317,33,50,44,151,30*48

[1557495272959]$GPGLL,3556.72537,N,12641.10697,E,043429.00,A,A*69

[1557495272959]$GPRMC,043430.00,A,3556.72511,N,12641.10718,E,0.012,,100519,,,A*75

[1557495272959]$GPVTG,,T,,M,0.012,N,0.023,K,A*21[1557495273978]

[1557495273978]$GPGGA,043430.00,3556.72511,N,12641.10718,E,1,07,1.11,35.1,M,18.8,M,,*66

[1557495273978]$GPGSA,A,3,08,27,11,07,16,30,18,,,,,,2.28,1.11,1.99*0D

[1557495273978]$GPGSV,4,1,15,01,,,30,04,20,272,27,07,48,306,36,08,74,297,36*47

[1557495273978]$GPGSV,4,2,15,09,,,32,11,36,207,38,16,40,079,32,18,37,175,35*4C

[1557495273978]$GPGSV,4,3,15,20,03,061,,21,01,034,,23,11,218,34,26,,,26*44

[1557495273978]$GPGSV,4,4,15,27,57,034,34,30,16,317,33,50,44,151,31*49

[1557495273978]$GPGLL,3556.72511,N,12641.10718,E,043430.00,A,A*63

[1557495273978]$GPRMC,043431.00,A,3556.72488,N,12641.10740,E,0.104,,100519,,,A*7E

[1557495273978]$GPVTG,,T,,M,0.104,N,0.193,K,A*2D[1557495274967]

[1557495274967]$GPGGA,043431.00,3556.72488,N,12641.10740,E,1,08,1.05,36.3,M,18.8,M,,*60

[1557495274967]$GPGSA,A,3,08,27,11,07,16,30,18,01,,,,,1.84,1.05,1.51*08

[1557495274967]$GPGSV,4,1,15,01,15,189,29,04,20,272,27,07,48,306,36,08,74,297,36*7B

[1557495274967]$GPGSV,4,2,15,09,,,34,11,36,207,38,16,40,079,32,18,37,175,33*4C

[1557495274967]$GPGSV,4,3,15,20,03,061,,21,01,034,,23,11,218,34,26,,,25*47

[1557495274967]$GPGSV,4,4,15,27,57,034,32,30,16,317,32,50,44,151,30*4F

[1557495274967]$GPGLL,3556.72488,N,12641.10740,E,043431.00,A,A*6E

[1557495274967]$GPRMC,043432.00,A,3556.72491,N,12641.10748,E,0.049,,100519,,,A*75

[1557495274967]$GPVTG,,T,,M,0.049,N,0.091,K,A*26[1557495275972]

[1557495275972]$GPGGA,043432.00,3556.72491,N,12641.10748,E,1,08,1.37,35.6,M,18.8,M,,*64

[1557495275972]$GPGSA,A,3,08,27,11,07,16,30,18,01,,,,,2.72,1.37,2.35*02

[1557495275972]$GPGSV,4,1,15,01,15,189,28,04,20,272,27,07,48,306,36,08,74,297,35*79

[1557495275972]$GPGSV,4,2,15,09,,,34,11,36,207,38,16,40,079,33,18,37,175,34*4A

[1557495275972]$GPGSV,4,3,15,20,03,061,,21,01,034,,23,11,218,35,26,,,25*46

[1557495275972]$GPGSV,4,4,15,27,57,034,32,30,16,317,31,50,44,151,31*4D

[1557495275972]$GPGLL,3556.72491,N,12641.10748,E,043432.00,A,A*6D

[1557495275972]$GPRMC,043433.00,A,3556.72492,N,12641.10758,E,0.083,,100519,,,A*70

[1557495275972]$GPVTG,,T,,M,0.083,N,0.154,K,A*28[1557495276967]

[1557495276967]$GPGGA,043433.00,3556.72492,N,12641.10758,E,1,08,1.05,34.9,M,18.8,M,,*68

[1557495276967]$GPGSA,A,3,08,27,11,07,16,30,18,01,,,,,1.84,1.05,1.51*08

[1557495276967]$GPGSV,4,1,15,01,15,189,28,04,20,272,27,07,48,306,35,08,74,297,36*79

[1557495276967]$GPGSV,4,2,15,09,,,35,11,36,207,39,16,40,079,34,18,37,175,34*4D

[1557495276967]$GPGSV,4,3,15,20,03,061,,21,01,034,,23,11,218,35,26,,,25*46

[1557495276967]$GPGSV,4,4,15,27,57,034,33,30,16,317,31,50,44,151,31*4C

[1557495276967]$GPGLL,3556.72492,N,12641.10758,E,043433.00,A,A*6E

[1557495276967]$GPRMC,043434.00,A,3556.72493,N,12641.10770,E,0.038,,100519,,,A*7C

[1557495276967]$GPVTG,,T,,M,0.038,N,0.071,K,A*2E[1557495277972]

[1557495277972]$GPGGA,043434.00,3556.72493,N,12641.10770,E,1,08,1.05,34.6,M,18.8,M,,*6B

[1557495277972]$GPGSA,A,3,08,27,11,07,16,30,18,01,,,,,1.84,1.05,1.51*08

[1557495277972]$GPGSV,4,1,15,01,15,189,28,04,20,272,27,07,48,306,35,08,74,297,36*79

[1557495277972]$GPGSV,4,2,15,09,,,36,11,36,207,39,16,40,079,34,18,37,175,33*49

[1557495277972]$GPGSV,4,3,15,20,03,061,,21,01,034,,23,11,218,34,26,,,26*44

[1557495277972]$GPGSV,4,4,15,27,57,034,34,30,16,317,31,50,44,151,30*4A

[1557495277972]$GPGLL,3556.72493,N,12641.10770,E,043434.00,A,A*62

[1557495277972]$GPRMC,043435.00,A,3556.72491,N,12641.10784,E,0.021,,100519,,,A*7C

[1557495277972]$GPVTG,,T,,M,0.021,N,0.039,K,A*2A[1557495278965]

[1557495278965]$GPGGA,043435.00,3556.72491,N,12641.10784,E,1,08,1.05,34.5,M,18.8,M,,*60

[1557495278965]$GPGSA,A,3,08,27,11,07,16,30,18,01,,,,,1.84,1.05,1.51*08

[1557495278965]$GPGSV,4,1,15,01,15,189,27,04,20,272,27,07,48,306,34,08,74,297,35*74

[1557495278965]$GPGSV,4,2,15,09,,,35,11,36,207,39,16,40,079,34,18,37,175,33*4A

[1557495278965]$GPGSV,4,3,15,20,03,061,,21,01,034,,23,11,218,34,26,,,26*44

[1557495278965]$GPGSV,4,4,15,27,57,034,34,30,16,317,32,50,44,151,30*49

[1557495278965]$GPGLL,3556.72491,N,12641.10784,E,043435.00,A,A*6A

[1557495278965]$GPRMC,043436.00,A,3556.72485,N,12641.10793,E,0.062,,100519,,,A*7B

[1557495278965]$GPVTG,,T,,M,0.062,N,0.114,K,A*23[1557495279971]

[1557495279971]$GPGGA,043436.00,3556.72485,N,12641.10793,E,1,08,1.05,34.8,M,18.8,M,,*6D

[1557495279971]$GPGSA,A,3,08,27,11,07,16,30,18,01,,,,,1.84,1.05,1.51*08

[1557495279971]$GPGSV,4,1,15,01,15,189,27,04,20,272,27,07,48,306,35,08,74,297,35*75

[1557495279971]$GPGSV,4,2,15,09,,,36,11,36,207,39,16,40,079,32,18,37,175,33*4F

[1557495279971]$GPGSV,4,3,15,20,03,061,,21,01,034,,23,11,218,33,26,,,24*41

[1557495279971]$GPGSV,4,4,15,27,57,034,32,30,16,317,31,50,44,151,29*44

[1557495279971]$GPGLL,3556.72485,N,12641.10793,E,043436.00,A,A*6A

[1557495279971]$GPRMC,043437.00,A,3556.72480,N,12641.10805,E,0.030,,100519,,,A*78

[1557495279971]$GPVTG,,T,,M,0.030,N,0.055,K,A*20[1557495280969]

[1557495280969]$GPGGA,043437.00,3556.72480,N,12641.10805,E,1,08,1.05,35.2,M,18.8,M,,*62

[1557495280969]$GPGSA,A,3,08,27,11,07,16,30,18,01,,,,,1.84,1.05,1.51*08

[1557495280969]$GPGSV,4,1,15,01,15,189,27,04,20,272,28,07,48,306,37,08,74,297,35*78

[1557495280969]$GPGSV,4,2,15,09,,,36,11,36,207,39,16,40,079,32,18,37,175,33*4F

[1557495280969]$GPGSV,4,3,15,20,03,061,,21,01,034,,23,11,218,32,26,,,25*41

[1557495280969]$GPGSV,4,4,15,27,57,034,34,30,16,317,32,50,44,151,30*49

[1557495280969]$GPGLL,3556.72480,N,12641.10805,E,043437.00,A,A*6E

[1557495280969]$GPRMC,043438.00,A,3556.72465,N,12641.10824,E,0.018,,100519,,,A*75

[1557495280969]$GPVTG,,T,,M,0.018,N,0.034,K,A*2D[1557495281972]

[1557495281972]$GPGGA,043438.00,3556.72465,N,12641.10824,E,1,08,1.05,36.4,M,18.8,M,,*60

[1557495281972]$GPGSA,A,3,08,27,11,07,16,30,18,01,,,,,1.84,1.05,1.51*08

[1557495281972]$GPGSV,4,1,15,01,15,189,27,04,20,272,27,07,48,306,35,08,74,297,32*72

[1557495281972]$GPGSV,4,2,15,09,,,34,11,36,207,39,16,40,079,31,18,37,175,34*49

[1557495281972]$GPGSV,4,3,15,20,03,061,,21,01,034,,23,11,218,31,26,,,27*40

[1557495281972]$GPGSV,4,4,15,27,57,034,36,30,16,317,33,50,44,151,30*4A

[1557495281972]$GPGLL,3556.72465,N,12641.10824,E,043438.00,A,A*69

[1557495281972]$GPRMC,043439.00,A,3556.72454,N,12641.10837,E,0.044,,100519,,,A*7D

[1557495281972]$GPVTG,,T,,M,0.044,N,0.082,K,A*29[1557495282968]

[1557495282968]$GPGGA,043439.00,3556.72454,N,12641.10837,E,1,08,1.05,37.2,M,18.8,M,,*66

[1557495282968]$GPGSA,A,3,08,27,11,07,16,30,18,01,,,,,1.84,1.05,1.51*08

[1557495282968]$GPGSV,4,1,15,01,15,189,28,04,20,272,27,07,48,306,35,08,74,297,33*7C

[1557495282968]$GPGSV,4,2,15,09,,,34,11,36,207,39,16,40,079,31,18,37,175,34*49

[1557495282968]$GPGSV,4,3,15,20,03,061,,21,01,034,,23,11,218,31,26,,,28*4F

[1557495282968]$GPGSV,4,4,15,27,57,034,35,30,16,317,33,50,44,151,30*49

[1557495282968]$GPGLL,3556.72454,N,12641.10837,E,043439.00,A,A*68

[1557495282968]$GPRMC,043440.00,A,3556.72442,N,12641.10852,E,0.047,,100519,,,A*74

[1557495282968]$GPVTG,,T,,M,0.047,N,0.088,K,A*20[1557495283973]

[1557495283973]$GPGGA,043440.00,3556.72442,N,12641.10852,E,1,08,1.05,38.1,M,18.8,M,,*60

[1557495283973]$GPGSA,A,3,08,27,11,07,16,30,18,01,,,,,1.84,1.05,1.51*08

[1557495283973]$GPGSV,4,1,15,01,15,189,28,04,20,272,27,07,48,306,35,08,74,297,33*7C

[1557495283973]$GPGSV,4,2,15,09,,,34,11,36,207,39,16,40,079,31,18,37,175,34*49

[1557495283973]$GPGSV,4,3,15,20,03,061,,21,01,034,,23,11,218,31,26,,,28*4F

[1557495283973]$GPGSV,4,4,15,27,57,034,35,30,16,317,33,50,44,151,31*48

[1557495283973]$GPGLL,3556.72442,N,12641.10852,E,043440.00,A,A*62

[1557495283973]$GPRMC,043441.00,A,3556.72441,N,12641.10856,E,0.019,,100519,,,A*79

[1557495283973]$GPVTG,,T,,M,0.019,N,0.035,K,A*2D[1557495284967]

[1557495284967]$GPGGA,043441.00,3556.72441,N,12641.10856,E,1,08,1.05,38.3,M,18.8,M,,*64

[1557495284967]$GPGSA,A,3,08,27,11,07,16,30,18,01,,,,,1.84,1.05,1.51*08

[1557495284967]$GPGSV,4,1,15,01,15,189,28,04,20,272,27,07,48,306,37,08,74,297,33*7E

[1557495284967]$GPGSV,4,2,15,09,,,35,11,36,207,39,16,40,079,25,18,37,175,34*4D

[1557495284967]$GPGSV,4,3,15,20,03,061,,21,01,034,,23,11,218,31,26,,,26*41

[1557495284967]$GPGSV,4,4,15,27,56,034,35,30,16,317,32,50,44,151,31*48

[1557495284967]$GPGLL,3556.72441,N,12641.10856,E,043441.00,A,A*64

[1557495284967]$GPRMC,043442.00,A,3556.72441,N,12641.10857,E,0.009,,100519,,,A*7A

[1557495284967]$GPVTG,,T,,M,0.009,N,0.017,K,A*2C[1557495285974]

[1557495285974]$GPGGA,043442.00,3556.72441,N,12641.10857,E,1,08,1.05,38.4,M,18.8,M,,*61

[1557495285974]$GPGSA,A,3,08,27,11,07,16,30,18,01,,,,,1.84,1.05,1.51*08

[1557495285974]$GPGSV,4,1,15,01,15,189,29,04,20,272,27,07,48,306,37,08,74,297,33*7F

[1557495285974]$GPGSV,4,2,15,09,,,35,11,36,207,38,16,40,079,26,18,37,175,34*4F

[1557495285974]$GPGSV,4,3,15,20,03,061,,21,01,034,,23,11,218,31,26,,,26*41

[1557495285974]$GPGSV,4,4,15,27,56,034,34,30,17,317,31,50,44,151,30*4A

[1557495285974]$GPGLL,3556.72441,N,12641.10857,E,043442.00,A,A*66

[1557495285974]$GPRMC,043443.00,A,3556.72439,N,12641.10858,E,0.052,,100519,,,A*75

[1557495285974]$GPVTG,,T,,M,0.052,N,0.096,K,A*2B[1557495286970]

[1557495286970]$GPGGA,043443.00,3556.72439,N,12641.10858,E,1,08,1.05,38.6,M,18.8,M,,*62

[1557495286970]$GPGSA,A,3,08,27,11,07,16,30,18,01,,,,,1.84,1.05,1.51*08

[1557495286970]$GPGSV,4,1,15,01,15,189,29,04,20,272,27,07,48,306,37,08,74,297,33*7F

[1557495286970]$GPGSV,4,2,15,09,,,34,11,36,207,39,16,40,079,27,18,37,175,35*4F

[1557495286970]$GPGSV,4,3,15,20,03,061,,21,01,034,,23,11,218,31,26,,,26*41

[1557495286970]$GPGSV,4,4,15,27,56,034,34,30,17,317,31,50,44,151,31*4B

[1557495286970]$GPGLL,3556.72439,N,12641.10858,E,043443.00,A,A*67

[1557495286970]$GPRMC,043444.00,A,3556.72435,N,12641.10865,E,0.025,,100519,,,A*70

[1557495286970]$GPVTG,,T,,M,0.025,N,0.046,K,A*26[1557495287969]

[1557495287969]$GPGGA,043444.00,3556.72435,N,12641.10865,E,1,08,1.05,38.9,M,18.8,M,,*68

[1557495287969]$GPGSA,A,3,08,27,11,07,16,30,18,01,,,,,1.84,1.05,1.51*08

[1557495287969]$GPGSV,4,1,15,01,15,189,28,04,20,272,25,07,48,306,36,08,74,297,34*7A

[1557495287969]$GPGSV,4,2,15,09,,,35,11,36,207,37,16,40,079,33,18,37,175,34*44

[1557495287969]$GPGSV,4,3,15,20,03,061,,21,01,034,,23,11,218,30,26,,,28*4E

[1557495287969]$GPGSV,4,4,15,27,56,034,34,30,17,317,32,50,44,151,30*49

[1557495287969]$GPGLL,3556.72435,N,12641.10865,E,043444.00,A,A*62

[1557495287969]$GPRMC,043445.00,A,3556.72441,N,12641.10863,E,0.058,,100519,,,A*7E

[1557495287969]$GPVTG,,T,,M,0.058,N,0.108,K,A*27[1557495288970]

[1557495288970]$GPGGA,043445.00,3556.72441,N,12641.10863,E,1,08,1.37,38.3,M,18.8,M,,*67

[1557495288970]$GPGSA,A,3,08,27,11,07,16,30,18,01,,,,,2.73,1.37,2.36*00

[1557495288970]$GPGSV,4,1,15,01,15,189,27,04,20,272,26,07,48,306,35,08,74,297,36*77

[1557495288970]$GPGSV,4,2,15,09,,,37,11,36,207,39,16,40,079,36,18,37,175,33*4A

[1557495288970]$GPGSV,4,3,15,20,03,061,,21,01,034,,23,11,218,29,26,,,29*47

[1557495288970]$GPGSV,4,4,15,27,56,034,33,30,17,317,30,50,44,151,31*4D

[1557495288970]$GPGLL,3556.72441,N,12641.10863,E,043445.00,A,A*66

[1557495288970]$GPRMC,043446.00,A,3556.72449,N,12641.10865,E,0.086,,100519,,,A*70

[1557495288970]$GPVTG,,T,,M,0.086,N,0.160,K,A*2A[1557495289966]

[1557495289966]$GPGGA,043446.00,3556.72449,N,12641.10865,E,1,08,1.37,37.5,M,18.8,M,,*63

[1557495289966]$GPGSA,A,3,08,27,11,07,16,30,18,01,,,,,2.73,1.37,2.36*00

[1557495289966]$GPGSV,4,1,15,01,15,189,27,04,20,272,26,07,48,306,35,08,74,297,36*77

[1557495289966]$GPGSV,4,2,15,09,,,36,11,36,207,38,16,40,079,36,18,37,175,33*4A

[1557495289966]$GPGSV,4,3,15,20,03,061,,21,01,034,,23,11,218,29,26,,,29*47

[1557495289966]$GPGSV,4,4,15,27,56,034,32,30,17,317,31,50,44,151,30*4C

[1557495289966]$GPGLL,3556.72449,N,12641.10865,E,043446.00,A,A*6B

[1557495289966]$GPRMC,043447.00,A,3556.72455,N,12641.10873,E,0.015,,100519,,,A*71

[1557495289966]$GPVTG,,T,,M,0.015,N,0.028,K,A*2D[1557495290968]

[1557495290968]$GPGGA,043447.00,3556.72455,N,12641.10873,E,1,08,1.37,36.6,M,18.8,M,,*6A

[1557495290968]$GPGSA,A,3,08,27,11,07,16,30,18,01,,,,,2.73,1.37,2.36*00

[1557495290968]$GPGSV,4,1,15,01,15,189,28,04,20,272,25,07,48,306,32,08,74,297,37*7D

[1557495290968]$GPGSV,4,2,15,09,,,34,11,36,207,38,16,40,079,36,18,37,175,33*48

[1557495290968]$GPGSV,4,3,15,20,03,061,,21,01,034,,23,11,218,28,26,,,29*46

[1557495290968]$GPGSV,4,4,15,27,56,034,32,30,17,317,30,50,44,151,30*4D

[1557495290968]$GPGLL,3556.72455,N,12641.10873,E,043447.00,A,A*60

[1557495290968]$GPRMC,043448.00,A,3556.72462,N,12641.10880,E,0.025,,100519,,,A*75

[1557495290968]$GPVTG,,T,,M,0.025,N,0.045,K,A*25[1557495291976]

[1557495291976]$GPGGA,043448.00,3556.72462,N,12641.10880,E,1,08,1.37,35.9,M,18.8,M,,*61

[1557495291976]$GPGSA,A,3,08,27,11,07,16,30,18,01,,,,,2.73,1.37,2.36*00

[1557495291976]$GPGSV,4,1,15,01,15,189,29,04,20,272,24,07,48,306,33,08,74,297,36*7D

[1557495291976]$GPGSV,4,2,15,09,,,35,11,36,207,39,16,40,079,35,18,37,175,33*4B

[1557495291976]$GPGSV,4,3,15,20,03,061,,21,01,034,,23,11,218,27,26,,,29*49

[1557495291976]$GPGSV,4,4,15,27,56,034,31,30,17,317,29,50,44,151,30*46

[1557495291976]$GPGLL,3556.72462,N,12641.10880,E,043448.00,A,A*67

[1557495291976]$GPRMC,043449.00,A,3556.72460,N,12641.10887,E,0.081,,100519,,,A*7F

[1557495291976]$GPVTG,,T,,M,0.081,N,0.150,K,A*2E[1557495292967]

[1557495292967]$GPGGA,043449.00,3556.72460,N,12641.10887,E,1,09,1.05,35.8,M,18.8,M,,*64

[1557495292967]$GPGSA,A,3,08,27,11,07,16,30,18,01,23,,,,1.84,1.05,1.51*09

[1557495292967]$GPGSV,4,1,15,01,15,189,30,04,20,272,24,07,48,306,33,08,74,297,36*75

[1557495292967]$GPGSV,4,2,15,09,,,35,11,36,207,38,16,40,079,35,18,37,175,32*4B

[1557495292967]$GPGSV,4,3,15,20,03,061,,21,01,034,,23,11,218,27,26,,,29*49

[1557495292967]$GPGSV,4,4,15,27,56,034,31,30,17,317,29,50,44,151,31*47

[1557495292967]$GPGLL,3556.72460,N,12641.10887,E,043449.00,A,A*63

[1557495292967]$GPRMC,043450.00,A,3556.72467,N,12641.10891,E,0.039,,100519,,,A*74

[1557495292967]$GPVTG,,T,,M,0.039,N,0.072,K,A*2C[1557495293970]

[1557495293970]$GPGGA,043450.00,3556.72467,N,12641.10891,E,1,09,1.37,35.2,M,18.8,M,,*67

[1557495293970]$GPGSA,A,3,08,27,11,07,16,30,18,01,23,,,,2.73,1.37,2.36*01

[1557495293970]$GPGSV,4,1,15,01,15,189,29,04,20,272,24,07,48,306,32,08,74,297,36*7C

[1557495293970]$GPGSV,4,2,15,09,,,35,11,36,207,38,16,40,079,35,18,37,175,33*4A

[1557495293970]$GPGSV,4,3,15,20,03,061,,21,01,034,,23,11,218,27,26,,,28*48

[1557495293970]$GPGSV,4,4,15,27,56,034,32,30,17,317,28,50,44,151,30*44

[1557495293970]$GPGLL,3556.72467,N,12641.10891,E,043450.00,A,A*6B

[1557495293970]$GPRMC,043451.00,A,3556.72473,N,12641.10893,E,0.045,,100519,,,A*79

[1557495293970]$GPVTG,,T,,M,0.045,N,0.083,K,A*29[1557495294968]

[1557495294968]$GPGGA,043451.00,3556.72473,N,12641.10893,E,1,09,1.37,34.6,M,18.8,M,,*64

[1557495294968]$GPGSA,A,3,08,27,11,07,16,30,18,01,23,,,,2.73,1.37,2.36*01

[1557495294968]$GPGSV,4,1,15,01,15,189,30,04,20,272,23,07,48,306,32,08,74,297,36*73

[1557495294968]$GPGSV,4,2,15,09,,,34,11,36,207,38,16,40,079,35,18,37,175,32*4A

[1557495294968]$GPGSV,4,3,15,20,03,061,,21,01,034,,23,11,218,27,26,,,29*49

[1557495294968]$GPGSV,4,4,15,27,56,034,32,30,17,317,28,50,44,151,30*44

[1557495294968]$GPGLL,3556.72473,N,12641.10893,E,043451.00,A,A*6D

[1557495294968]$GPRMC,043452.00,A,3556.72480,N,12641.10894,E,0.049,,100519,,,A*7D

[1557495294968]$GPVTG,,T,,M,0.049,N,0.091,K,A*26[1557495295973]

[1557495295973]$GPGGA,043452.00,3556.72480,N,12641.10894,E,1,08,1.37,33.9,M,18.8,M,,*65

[1557495295973]$GPGSA,A,3,08,27,11,07,16,18,01,23,,,,,2.73,1.37,2.36*02

[1557495295973]$GPGSV,4,1,15,01,15,189,31,04,20,272,23,07,48,306,31,08,74,297,36*71

[1557495295973]$GPGSV,4,2,15,09,,,34,11,36,207,39,16,40,079,35,18,37,175,32*4B

[1557495295973]$GPGSV,4,3,15,20,03,061,,21,01,034,,23,11,218,27,26,,,29*49

[1557495295973]$GPGSV,4,4,15,27,56,034,31,30,17,317,,50,44,151,30*4D

[1557495295973]$GPGLL,3556.72480,N,12641.10894,E,043452.00,A,A*65

[1557495295973]$GPRMC,043453.00,A,3556.72490,N,12641.10892,E,0.068,,100519,,,A*78

[1557495295973]$GPVTG,,T,,M,0.068,N,0.127,K,A*29[1557495296967]

[1557495296967]$GPGGA,043453.00,3556.72490,N,12641.10892,E,1,08,1.30,33.2,M,18.8,M,,*6F

[1557495296967]$GPGSA,A,3,08,27,11,07,16,18,01,23,,,,,2.34,1.30,1.95*0C

[1557495296967]$GPGSV,4,1,15,01,15,189,31,04,20,272,23,07,48,306,31,08,74,297,36*71

[1557495296967]$GPGSV,4,2,15,09,,,34,11,36,207,38,16,40,079,35,18,37,175,32*4A

[1557495296967]$GPGSV,4,3,15,20,03,061,,21,01,034,,23,11,218,27,26,,,28*48

[1557495296967]$GPGSV,4,4,15,27,56,034,32,30,17,317,25,50,44,151,30*49

[1557495296967]$GPGLL,3556.72490,N,12641.10892,E,043453.00,A,A*63

[1557495296967]$GPRMC,043454.00,A,3556.72502,N,12641.10889,E,0.032,,100519,,,A*70

[1557495296967]$GPVTG,,T,,M,0.032,N,0.059,K,A*2E[1557495297976]

[1557495297976]$GPGGA,043454.00,3556.72502,N,12641.10889,E,1,09,1.02,32.5,M,18.8,M,,*6E

[1557495297976]$GPGSA,A,3,08,27,11,07,16,30,18,01,23,,,,1.76,1.02,1.44*07

[1557495297976]$GPGSV,4,1,15,01,15,189,31,04,20,272,23,07,48,306,31,08,74,297,36*71

[1557495297976]$GPGSV,4,2,15,09,,,32,11,36,207,39,16,40,079,35,18,37,175,33*4C

[1557495297976]$GPGSV,4,3,15,20,03,061,,21,01,034,,23,11,218,28,26,,,28*47

[1557495297976]$GPGSV,4,4,15,27,56,034,32,30,17,317,25,50,44,151,30*49

[1557495297976]$GPGLL,3556.72502,N,12641.10889,E,043454.00,A,A*64

[1557495297976]$GPRMC,043455.00,A,3556.72513,N,12641.10890,E,0.067,,100519,,,A*79

[1557495297976]$GPVTG,,T,,M,0.067,N,0.125,K,A*24[1557495298973]

[1557495298973]$GPGGA,043455.00,3556.72513,N,12641.10890,E,1,10,1.16,31.7,M,18.8,M,,*6B

[1557495298973]$GPGSA,A,3,08,27,11,07,16,30,18,01,23,26,,,2.01,1.16,1.65*06

[1557495298973]$GPGSV,4,1,15,01,15,189,31,04,20,272,22,07,48,306,31,08,74,297,36*70

[1557495298973]$GPGSV,4,2,15,09,,,32,11,36,207,39,16,40,079,35,18,37,175,32*4D

[1557495298973]$GPGSV,4,3,15,20,03,061,,21,01,034,,23,11,218,28,26,17,099,29*70

[1557495298973]$GPGSV,4,4,15,27,56,034,32,30,17,317,26,50,44,151,30*4A

[1557495298973]$GPGLL,3556.72513,N,12641.10890,E,043455.00,A,A*6D

[1557495298973]$GPRMC,043456.00,A,3556.72523,N,12641.10891,E,0.092,,100519,,,A*72

[1557495298973]$GPVTG,,T,,M,0.092,N,0.171,K,A*2F[1557495299975]

[1557495299975]$GPGGA,043456.00,3556.72523,N,12641.10891,E,1,10,0.84,31.0,M,18.8,M,,*67

[1557495299975]$GPGSA,A,3,08,27,11,07,16,30,18,01,23,26,,,1.47,0.84,1.20*0C

[1557495299975]$GPGSV,4,1,15,01,15,189,31,04,20,272,23,07,48,306,31,08,74,297,36*71

[1557495299975]$GPGSV,4,2,15,09,,,32,11,36,207,39,16,40,079,35,18,37,175,33*4C

[1557495299975]$GPGSV,4,3,15,20,03,061,,21,01,034,,23,11,218,28,26,17,099,29*70

[1557495299975]$GPGSV,4,4,15,27,56,034,32,30,17,317,26,50,44,151,30*4A

[1557495299975]$GPGLL,3556.72523,N,12641.10891,E,043456.00,A,A*6C

[1557495299975]$GPRMC,043457.00,A,3556.72532,N,12641.10888,E,0.058,,100519,,,A*7D

[1557495299975]$GPVTG,,T,,M,0.058,N,0.107,K,A*28[1557495300968]

[1557495300968]$GPGGA,043457.00,3556.72532,N,12641.10888,E,1,10,0.84,30.6,M,18.8,M,,*69

[1557495300968]$GPGSA,A,3,08,27,11,07,16,30,18,01,23,26,,,1.47,0.84,1.20*0C

[1557495300968]$GPGSV,4,1,15,01,15,189,32,04,20,272,25,07,48,306,35,08,74,297,35*73

[1557495300968]$GPGSV,4,2,15,09,,,32,11,36,207,39,16,40,079,34,18,37,175,34*4A

[1557495300968]$GPGSV,4,3,15,20,03,061,,21,01,034,,23,11,218,28,26,17,099,29*70

[1557495300968]$GPGSV,4,4,15,27,56,034,32,30,17,317,26,50,44,151,30*4A

[1557495300968]$GPGLL,3556.72532,N,12641.10888,E,043457.00,A,A*65

[1557495300968]$GPRMC,043458.00,A,3556.72541,N,12641.10883,E,0.093,,100519,,,A*7A

[1557495300968]$GPVTG,,T,,M,0.093,N,0.172,K,A*2D[1557495301976]

[1557495301976]$GPGGA,043458.00,3556.72541,N,12641.10883,E,1,10,1.20,30.1,M,18.8,M,,*61

[1557495301976]$GPGSA,A,3,08,27,11,07,16,30,18,01,23,26,,,2.04,1.20,1.65*06

[1557495301976]$GPGSV,4,1,15,01,15,189,31,04,20,272,25,07,48,305,32,08,74,297,35*74

[1557495301976]$GPGSV,4,2,15,09,,,32,11,36,207,38,16,40,079,33,18,37,175,33*4B

[1557495301976]$GPGSV,4,3,15,20,03,061,,21,01,034,,23,11,218,27,26,17,099,28*7E

[1557495301976]$GPGSV,4,4,15,27,56,034,31,30,17,317,26,50,44,151,31*48

[1557495301976]$GPGLL,3556.72541,N,12641.10883,E,043458.00,A,A*65

[1557495301976]$GPRMC,043459.00,A,3556.72544,N,12641.10884,E,0.062,,100519,,,A*77

[1557495301976]$GPVTG,,T,,M,0.062,N,0.116,K,A*21[1557495302982]

[1557495302982]$GPGGA,043459.00,3556.72544,N,12641.10884,E,1,10,0.86,29.9,M,18.8,M,,*6F

[1557495302982]$GPGSA,A,3,08,27,11,07,16,30,18,01,23,26,,,1.49,0.86,1.22*02

[1557495302982]$GPGSV,4,1,15,01,15,189,31,04,20,272,25,07,48,305,32,08,74,298,36*78

[1557495302982]$GPGSV,4,2,15,09,,,31,11,36,207,38,16,40,079,33,18,37,175,33*48

[1557495302982]$GPGSV,4,3,15,20,03,061,,21,01,034,,23,11,218,26,26,17,099,28*7F

[1557495302982]$GPGSV,4,4,15,27,56,034,30,30,17,317,25,50,44,151,31*4A

[1557495302982]$GPGLL,3556.72544,N,12641.10884,E,043459.00,A,A*66

[1557495302982]$GPRMC,043500.00,A,3556.72549,N,12641.10885,E,0.011,,100519,,,A*72

[1557495302982]$GPVTG,,T,,M,0.011,N,0.021,K,A*20[1557495303978]

[1557495303978]$GPGGA,043500.00,3556.72549,N,12641.10885,E,1,10,0.88,29.5,M,18.8,M,,*6C

[1557495303978]$GPGSA,A,3,08,27,11,07,16,30,18,01,23,26,,,1.55,0.88,1.28*0B

[1557495303978]$GPGSV,4,1,15,01,15,189,31,04,20,272,24,07,48,305,32,08,74,298,37*78

[1557495303978]$GPGSV,4,2,15,09,,,31,11,36,207,38,16,40,079,34,18,37,175,33*4F

[1557495303978]$GPGSV,4,3,15,20,03,061,,21,01,034,,23,11,218,27,26,17,099,28*7E

[1557495303978]$GPGSV,4,4,15,27,56,034,31,30,17,317,26,50,44,151,32*4B

[1557495303978]$GPGLL,3556.72549,N,12641.10885,E,043500.00,A,A*67

[1557495303978]$GPRMC,043501.00,A,3556.72556,N,12641.10885,E,0.076,,100519,,,A*7C

[1557495303978]$GPVTG,,T,,M,0.076,N,0.142,K,A*25[1557495304973]

[1557495304973]$GPGGA,043501.00,3556.72556,N,12641.10885,E,1,10,0.88,29.2,M,18.8,M,,*64

[1557495304973]$GPGSA,A,3,08,27,11,07,16,30,18,01,23,26,,,1.55,0.88,1.28*0B

[1557495304973]$GPGSV,4,1,15,01,15,189,32,04,20,272,26,07,48,305,32,08,74,298,35*7B

[1557495304973]$GPGSV,4,2,15,09,,,32,11,36,207,38,16,40,079,34,18,37,175,33*4C

[1557495304973]$GPGSV,4,3,15,20,03,061,,21,01,034,,23,11,218,28,26,17,099,28*71

[1557495304973]$GPGSV,4,4,15,27,56,034,31,30,17,317,25,50,44,151,31*4B

[1557495304973]$GPGLL,3556.72556,N,12641.10885,E,043501.00,A,A*68

[1557495304973]$GPRMC,043502.00,A,3556.72557,N,12641.10880,E,0.159,,100519,,,A*77

[1557495304973]$GPVTG,,T,,M,0.159,N,0.295,K,A*20[1557495305975]

[1557495305975]$GPGGA,043502.00,3556.72557,N,12641.10880,E,1,10,1.02,29.4,M,18.8,M,,*66

[1557495305975]$GPGSA,A,3,08,27,11,07,16,30,18,01,23,26,,,1.76,1.02,1.44*03

[1557495305975]$GPGSV,4,1,15,01,15,189,32,04,20,272,26,07,48,305,31,08,74,298,35*78

[1557495305975]$GPGSV,4,2,15,09,,,33,11,36,207,39,16,40,079,35,18,37,175,33*4D

[1557495305975]$GPGSV,4,3,15,20,03,061,,21,01,034,,23,11,218,29,26,17,099,28*70

[1557495305975]$GPGSV,4,4,15,27,56,034,31,30,17,317,24,50,44,151,31*4A

[1557495305975]$GPGLL,3556.72557,N,12641.10880,E,043502.00,A,A*6F

[1557495305975]$GPRMC,043503.00,A,3556.72565,N,12641.10875,E,0.117,,100519,,,A*77

[1557495305975]$GPVTG,,T,,M,0.117,N,0.217,K,A*20[1557495306974]

[1557495306974]$GPGGA,043503.00,3556.72565,N,12641.10875,E,1,10,1.26,29.1,M,18.8,M,,*6F

[1557495306974]$GPGSA,A,3,08,27,11,07,16,30,18,01,23,26,,,2.36,1.26,1.99*02

[1557495306974]$GPGSV,4,1,15,01,15,189,32,04,20,272,26,07,48,305,32,08,74,298,35*7B

[1557495306974]$GPGSV,4,2,15,09,,,32,11,36,207,38,16,40,079,35,18,37,175,33*4D

[1557495306974]$GPGSV,4,3,15,20,03,061,,21,01,034,,23,11,218,28,26,17,099,28*71

[1557495306974]$GPGSV,4,4,15,27,56,034,31,30,17,317,22,50,44,151,31*4C

[1557495306974]$GPGLL,3556.72565,N,12641.10875,E,043503.00,A,A*65

[1557495306974]$GPRMC,043504.00,A,3556.72575,N,12641.10867,E,0.075,,100519,,,A*77

[1557495306974]$GPVTG,,T,,M,0.075,N,0.139,K,A*2A[1557495307970]

[1557495307970]$GPGGA,043504.00,3556.72575,N,12641.10867,E,1,10,1.26,28.7,M,18.8,M,,*6D

[1557495307970]$GPGSA,A,3,08,27,11,07,16,30,18,01,23,26,,,2.36,1.26,1.99*02

[1557495307970]$GPGSV,4,1,15,01,15,189,32,04,20,272,26,07,48,305,33,08,74,298,35*7A

[1557495307970]$GPGSV,4,2,15,09,,,31,11,36,207,38,16,40,079,35,18,37,175,33*4E

[1557495307970]$GPGSV,4,3,15,20,03,061,,21,01,034,,23,11,218,29,26,17,099,28*70

[1557495307970]$GPGSV,4,4,15,27,56,034,31,30,17,317,22,50,44,151,31*4C

[1557495307970]$GPGLL,3556.72575,N,12641.10867,E,043504.00,A,A*60

[1557495307970]$GPRMC,043505.00,A,3556.72585,N,12641.10856,E,0.049,,100519,,,A*74

[1557495307970]$GPVTG,,T,,M,0.049,N,0.091,K,A*26[1557495308976]

[1557495308976]$GPGGA,043505.00,3556.72585,N,12641.10856,E,1,10,1.26,28.1,M,18.8,M,,*67

[1557495308976]$GPGSA,A,3,08,27,11,07,16,30,18,01,23,26,,,2.36,1.26,1.99*02

[1557495308976]$GPGSV,4,1,15,01,15,189,31,04,20,272,26,07,48,305,33,08,74,298,35*79

[1557495308976]$GPGSV,4,2,15,09,,,32,11,36,207,38,16,40,079,35,18,38,175,33*42

[1557495308976]$GPGSV,4,3,15,20,03,061,,21,01,034,,23,11,218,29,26,17,099,27*7F

[1557495308976]$GPGSV,4,4,15,27,56,034,32,30,17,317,24,50,44,151,31*49

[1557495308976]$GPGLL,3556.72585,N,12641.10856,E,043505.00,A,A*6C

[1557495308976]$GPRMC,043506.00,A,3556.72592,N,12641.10851,E,0.068,,100519,,,A*75

[1557495308976]$GPVTG,,T,,M,0.068,N,0.127,K,A*29[1557495309972]

[1557495309972]$GPGGA,043506.00,3556.72592,N,12641.10851,E,1,10,1.16,27.9,M,18.8,M,,*61

[1557495309972]$GPGSA,A,3,08,27,11,07,16,30,18,01,23,26,,,2.01,1.16,1.65*06

[1557495309972]$GPGSV,4,1,15,01,15,189,31,04,20,272,27,07,48,305,33,08,74,298,35*78

[1557495309972]$GPGSV,4,2,15,09,,,31,11,36,207,38,16,40,079,35,18,38,175,34*46

[1557495309972]$GPGSV,4,3,15,20,03,061,,21,01,034,,23,11,218,29,26,17,099,28*70

[1557495309972]$GPGSV,4,4,15,27,56,034,32,30,17,317,27,50,44,151,31*4A

[1557495309972]$GPGLL,3556.72592,N,12641.10851,E,043506.00,A,A*6E

[1557495309972]$GPRMC,043507.00,A,3556.72598,N,12641.10842,E,0.059,,100519,,,A*7E

[1557495309972]$GPVTG,,T,,M,0.059,N,0.109,K,A*27[1557495310973]

[1557495310973]$GPGGA,043507.00,3556.72598,N,12641.10842,E,1,10,1.26,27.6,M,18.8,M,,*64

[1557495310973]$GPGSA,A,3,08,27,11,07,16,30,18,01,23,26,,,2.36,1.26,1.99*02

[1557495310973]$GPGSV,4,1,15,01,15,189,31,04,20,272,27,07,48,305,33,08,74,298,34*79

[1557495310973]$GPGSV,4,2,15,09,,,31,11,36,207,38,16,40,079,35,18,38,175,34*46

[1557495310973]$GPGSV,4,3,15,20,03,061,,21,01,034,,23,11,218,29,26,17,099,28*70

[1557495310973]$GPGSV,4,4,15,27,56,034,32,30,17,317,27,50,44,151,31*4A

[1557495310973]$GPGLL,3556.72598,N,12641.10842,E,043507.00,A,A*67

[1557495310973]$GPRMC,043508.00,A,3556.72587,N,12641.10844,E,0.046,,100519,,,A*77

[1557495310973]$GPVTG,,T,,M,0.046,N,0.085,K,A*2C